[{"Index": 1558, "ICAO": "EICK", "Name": "Cork Airport", "Latitude": 51.84130096435547, "Longitude": -8.491109848022461, "Municipality": "Cork", "iso_country": "IE", "Iso_Region": "IE-C"}, {"Index": 1601, "ICAO": "KJAC", "Name": "Jackson Hole Airport", "Latitude": 43.6072998046875, "Longitude": -110.73799896240234, "Municipality": "Jackson", "iso_country": "US", "Iso_Region": "US-WY"}, {"Index": 1622, "ICAO": "KJAX", "Name": "Jacksonville International Airport", "Latitude": 30.49410057067871, "Longitude": -81.68789672851562, "Municipality": "Jacksonville", "iso_country": "US", "Iso_Region": "US-FL"}, {"Index": 1649, "ICAO": "EIDW", "Name": "Dublin Airport", "Latitude": 53.421299, "Longitude": -6.27007, "Municipality": "Dublin", "iso_country": "IE", "Iso_Region": "IE-D"}, {"Index": 1714, "ICAO": "LFBD", "Name": "Bordeaux-M\u00e9rignac Airport", "Latitude": 44.8283, "Longitude": -0.715556, "Municipality": "Bordeaux/M\u00e9rignac", "iso_country": "FR", "Iso_Region": "FR-NAQ"}, {"Index": 1715, "ICAO": "LFBE", "Name": "Bergerac-Roumani\u00e8re Airport", "Latitude": 44.82529830932617, "Longitude": 0.5186110138893127, "Municipality": "Bergerac/Roumani\u00e8re", "iso_country": "FR", "Iso_Region": "FR-NAQ"}, {"Index": 1725, "ICAO": "LFBO", "Name": "Toulouse-Blagnac Airport", "Latitude": 43.629101, "Longitude": 1.36382, "Municipality": "Toulouse/Blagnac", "iso_country": "FR", "Iso_Region": "FR-OCC"}, {"Index": 2004, "ICAO": "KJFK", "Name": "John F Kennedy International Airport", "Latitude": 40.639801, "Longitude": -73.7789, "Municipality": "New York", "iso_country": "US", "Iso_Region": "US-NY"}, {"Index": 2423, "ICAO": "LFKB", "Name": "Bastia-Poretta Airport", "Latitude": 42.55270004272461, "Longitude": 9.48373031616211, "Municipality": "Bastia/Poretta", "iso_country": "FR", "Iso_Region": "FR-COR"}, {"Index": 2430, "ICAO": "EINN", "Name": "Shannon Airport", "Latitude": 52.702, "Longitude": -8.92482, "Municipality": "Shannon", "iso_country": "IE", "Iso_Region": "IE-CE"}, {"Index": 2431, "ICAO": "LFKJ", "Name": "Ajaccio-Napol\u00e9on Bonaparte Airport", "Latitude": 41.92359924316406, "Longitude": 8.8029203414917, "Municipality": "Ajaccio/Napol\u00e9on Bonaparte", "iso_country": "FR", "Iso_Region": "FR-COR"}, {"Index": 2467, "ICAO": "AYPY", "Name": "Port Moresby Jacksons International Airport", "Latitude": -9.443380355834961, "Longitude": 147.22000122070312, "Municipality": "Port Moresby", "iso_country": "PG", "Iso_Region": "PG-NCD"}, {"Index": 2512, "ICAO": "LFLL", "Name": "Lyon Saint-Exup\u00e9ry Airport", "Latitude": 45.725556, "Longitude": 5.081111, "Municipality": "Lyon", "iso_country": "FR", "Iso_Region": "FR-ARA"}, {"Index": 2591, "ICAO": "LFML", "Name": "Marseille Provence Airport", "Latitude": 43.439271922, "Longitude": 5.22142410278, "Municipality": "Marseille", "iso_country": "FR", "Iso_Region": "FR-PAC"}, {"Index": 2593, "ICAO": "LFMN", "Name": "Nice-C\u00f4te d'Azur Airport", "Latitude": 43.6584014893, "Longitude": 7.215869903560001, "Municipality": "Nice", "iso_country": "FR", "Iso_Region": "FR-PAC"}, {"Index": 2595, "ICAO": "LFMP", "Name": "Perpignan-Rivesaltes (Llaban\u00e8re) Airport", "Latitude": 42.74039840698242, "Longitude": 2.8706700801849365, "Municipality": "Perpignan/Rivesaltes", "iso_country": "FR", "Iso_Region": "FR-OCC"}, {"Index": 2599, "ICAO": "LFMT", "Name": "Montpellier-M\u00e9diterran\u00e9e Airport", "Latitude": 43.57619857788086, "Longitude": 3.96301007270813, "Municipality": "Montpellier/M\u00e9diterran\u00e9e", "iso_country": "FR", "Iso_Region": "FR-OCC"}, {"Index": 2823, "ICAO": "LFPG", "Name": "Charles de Gaulle International Airport", "Latitude": 49.012798, "Longitude": 2.55, "Municipality": "Paris", "iso_country": "FR", "Iso_Region": "FR-IDF"}, {"Index": 2871, "ICAO": "MBPV", "Name": "Providenciales Airport", "Latitude": 21.77359962463379, "Longitude": -72.26589965820312, "Municipality": "Providenciales Island", "iso_country": "TC", "Iso_Region": "TC-PR"}, {"Index": 2993, "ICAO": "LFRS", "Name": "Nantes Atlantique Airport", "Latitude": 47.153198242200006, "Longitude": -1.61073005199, "Municipality": "Nantes", "iso_country": "FR", "Iso_Region": "FR-PDL"}, {"Index": 5201, "ICAO": "BIKF", "Name": "Keflavik International Airport", "Latitude": 63.985001, "Longitude": -22.6056, "Municipality": "Reykjav\u00edk", "iso_country": "IS", "Iso_Region": "IS-2"}, {"Index": 5238, "ICAO": "LSGG", "Name": "Geneva Cointrin International Airport", "Latitude": 46.23809814453125, "Longitude": 6.108950138092041, "Municipality": "Geneva", "iso_country": "CH", "Iso_Region": "CH-GE"}, {"Index": 6740, "ICAO": "LSZH", "Name": "Z\u00fcrich Airport", "Latitude": 47.458056, "Longitude": 8.548056, "Municipality": "Zurich", "iso_country": "CH", "Iso_Region": "CH-ZH"}, {"Index": 7894, "ICAO": "LGAV", "Name": "Eleftherios Venizelos International Airport", "Latitude": 37.9364013672, "Longitude": 23.9444999695, "Municipality": "Athens", "iso_country": "GR", "Iso_Region": "GR-A1"}, {"Index": 8522, "ICAO": "LGIR", "Name": "Heraklion International Nikos Kazantzakis Airport", "Latitude": 35.3396987915, "Longitude": 25.180299758900002, "Municipality": "Heraklion", "iso_country": "GR", "Iso_Region": "GR-91"}, {"Index": 8543, "ICAO": "OTHH", "Name": "Hamad International Airport", "Latitude": 25.273056, "Longitude": 51.608056, "Municipality": "Doha", "iso_country": "QA", "Iso_Region": "QA-DA"}, {"Index": 8831, "ICAO": "LGMK", "Name": "Mikonos Airport", "Latitude": 37.43510055541992, "Longitude": 25.348100662231445, "Municipality": "Mykonos Island", "iso_country": "GR", "Iso_Region": "GR-82"}, {"Index": 9058, "ICAO": "WMKK", "Name": "Kuala Lumpur International Airport", "Latitude": 2.745579957962, "Longitude": 101.70999908447, "Municipality": "Kuala Lumpur", "iso_country": "MY", "Iso_Region": "MY-14"}, {"Index": 9305, "ICAO": "LGSK", "Name": "Skiathos Island National Airport", "Latitude": 39.177101135253906, "Longitude": 23.503700256347656, "Municipality": "Skiathos", "iso_country": "GR", "Iso_Region": "GR-43"}, {"Index": 9392, "ICAO": "LGTS", "Name": "Thessaloniki Macedonia International Airport", "Latitude": 40.51969909667969, "Longitude": 22.97089958190918, "Municipality": "Thessaloniki", "iso_country": "GR", "Iso_Region": "GR-54"}, {"Index": 11007, "ICAO": "LTAI", "Name": "Antalya International Airport", "Latitude": 36.898701, "Longitude": 30.800501, "Municipality": "Antalya", "iso_country": "TR", "Iso_Region": "TR-07"}, {"Index": 11373, "ICAO": "WAAA", "Name": "Hasanuddin International Airport", "Latitude": -5.061629772186279, "Longitude": 119.55400085449219, "Municipality": "Ujung Pandang-Celebes Island", "iso_country": "ID", "Iso_Region": "ID-SN"}, {"Index": 11406, "ICAO": "LTFM", "Name": "\u0130stanbul Airport", "Latitude": 41.261297, "Longitude": 28.741951, "Municipality": "Arnavutk\u00f6y, Istanbul", "iso_country": "TR", "Iso_Region": "TR-34"}, {"Index": 11500, "ICAO": "VECC", "Name": "Netaji Subhash Chandra Bose International Airport", "Latitude": 22.654699325561523, "Longitude": 88.44670104980469, "Municipality": "Kolkata", "iso_country": "IN", "Iso_Region": "IN-WB"}, {"Index": 11613, "ICAO": "WADD", "Name": "Ngurah Rai (Bali) International Airport", "Latitude": -8.7481698989868, "Longitude": 115.16699981689, "Municipality": "Denpasar-Bali Island", "iso_country": "ID", "Iso_Region": "ID-BA"}, {"Index": 13959, "ICAO": "EKBI", "Name": "Billund Airport", "Latitude": 55.7402992249, "Longitude": 9.15178012848, "Municipality": "Billund", "iso_country": "DK", "Iso_Region": "DK-83"}, {"Index": 14037, "ICAO": "EKCH", "Name": "Copenhagen Kastrup Airport", "Latitude": 55.617900848389, "Longitude": 12.656000137329, "Municipality": "Copenhagen", "iso_country": "DK", "Iso_Region": "DK-84"}, {"Index": 14098, "ICAO": "KLAR", "Name": "Laramie Regional Airport", "Latitude": 41.31209945678711, "Longitude": -105.67500305175781, "Municipality": "Laramie", "iso_country": "US", "Iso_Region": "US-WY"}, {"Index": 14099, "ICAO": "KLAS", "Name": "McCarran International Airport", "Latitude": 36.08010101, "Longitude": -115.1520004, "Municipality": "Las Vegas", "iso_country": "US", "Iso_Region": "US-NV"}, {"Index": 14103, "ICAO": "KLAW", "Name": "Lawton Fort Sill Regional Airport", "Latitude": 34.5676994324, "Longitude": -98.4166030884, "Municipality": "Lawton", "iso_country": "US", "Iso_Region": "US-OK"}, {"Index": 14104, "ICAO": "KLAX", "Name": "Los Angeles International Airport", "Latitude": 33.942501, "Longitude": -118.407997, "Municipality": "Los Angeles", "iso_country": "US", "Iso_Region": "US-CA"}, {"Index": 14161, "ICAO": "KLBB", "Name": "Lubbock Preston Smith International Airport", "Latitude": 33.663601, "Longitude": -101.822998, "Municipality": "Lubbock", "iso_country": "US", "Iso_Region": "US-TX"}, {"Index": 14165, "ICAO": "KLBF", "Name": "North Platte Regional Airport Lee Bird Field", "Latitude": 41.12620163, "Longitude": -100.6839981, "Municipality": "North Platte", "iso_country": "US", "Iso_Region": "US-NE"}, {"Index": 14208, "ICAO": "LHBP", "Name": "Budapest Liszt Ferenc International Airport", "Latitude": 47.42976, "Longitude": 19.261093, "Municipality": "Budapest", "iso_country": "HU", "Iso_Region": "HU-PE"}, {"Index": 14420, "ICAO": "KLEX", "Name": "Blue Grass Airport", "Latitude": 38.0364990234375, "Longitude": -84.60590362548828, "Municipality": "Lexington", "iso_country": "US", "Iso_Region": "US-KY"}, {"Index": 14555, "ICAO": "KLGA", "Name": "La Guardia Airport", "Latitude": 40.777199, "Longitude": -73.872597, "Municipality": "New York", "iso_country": "US", "Iso_Region": "US-NY"}, {"Index": 14598, "ICAO": "ZBAA", "Name": "Beijing Capital International Airport", "Latitude": 40.080101013183594, "Longitude": 116.58499908447266, "Municipality": "Beijing", "iso_country": "CN", "Iso_Region": "CN-11"}, {"Index": 14732, "ICAO": "KLIT", "Name": "Bill & Hillary Clinton National Airport/Adams Field", "Latitude": 34.729582, "Longitude": -92.223728, "Municipality": "Little Rock", "iso_country": "US", "Iso_Region": "US-AR"}, {"Index": 14822, "ICAO": "GCLP", "Name": "Gran Canaria Airport", "Latitude": 27.931900024414062, "Longitude": -15.38659954071045, "Municipality": "Gran Canaria Island", "iso_country": "ES", "Iso_Region": "ES-CN"}, {"Index": 15033, "ICAO": "MDLR", "Name": "Casa De Campo International Airport", "Latitude": 18.450700759887695, "Longitude": -68.91179656982422, "Municipality": "La Romana", "iso_country": "DO", "Iso_Region": "DO-12"}, {"Index": 15118, "ICAO": "KLNK", "Name": "Lincoln Airport", "Latitude": 40.85100173950195, "Longitude": -96.75920104980469, "Municipality": "Lincoln", "iso_country": "US", "Iso_Region": "US-NE"}, {"Index": 15347, "ICAO": "MDPP", "Name": "Gregorio Luperon International Airport", "Latitude": 19.75790023803711, "Longitude": -70.56999969482422, "Municipality": "Puerto Plata", "iso_country": "DO", "Iso_Region": "DO-18"}, {"Index": 15457, "ICAO": "GCTS", "Name": "Tenerife South Airport", "Latitude": 28.0445, "Longitude": -16.5725, "Municipality": "Tenerife", "iso_country": "ES", "Iso_Region": "ES-CN"}, {"Index": 15537, "ICAO": "EKVG", "Name": "V\u00e1gar Airport", "Latitude": 62.063599, "Longitude": -7.27722, "Municipality": "V\u00e1gar", "iso_country": "FO", "Iso_Region": "FO-U-A"}, {"Index": 15572, "ICAO": "MDSD", "Name": "Las Am\u00e9ricas International Airport", "Latitude": 18.42970085144, "Longitude": -69.668899536133, "Municipality": "Santo Domingo", "iso_country": "DO", "Iso_Region": "DO-01"}, {"Index": 15574, "ICAO": "TAPA", "Name": "V.C. Bird International Airport", "Latitude": 17.1367, "Longitude": -61.792702, "Municipality": "St. John's", "iso_country": "AG", "Iso_Region": "AG-03"}, {"Index": 15588, "ICAO": "MDST", "Name": "Cibao International Airport", "Latitude": 19.406099319458008, "Longitude": -70.60469818115234, "Municipality": "Santiago", "iso_country": "DO", "Iso_Region": "DO-25"}, {"Index": 15787, "ICAO": "EKYT", "Name": "Aalborg Airport", "Latitude": 57.0927589138, "Longitude": 9.84924316406, "Municipality": "Aalborg", "iso_country": "DK", "Iso_Region": "DK-81"}, {"Index": 15919, "ICAO": "KLXV", "Name": "Lake County Airport", "Latitude": 39.220298767100005, "Longitude": -106.317001343, "Municipality": "Leadville", "iso_country": "US", "Iso_Region": "US-CO"}, {"Index": 17685, "ICAO": "TNCM", "Name": "Princess Juliana International Airport", "Latitude": 18.041000366200002, "Longitude": -63.1088981628, "Municipality": "Saint Martin", "iso_country": "SX", "Iso_Region": "SX-U-A"}, {"Index": 19137, "ICAO": "YSSY", "Name": "Sydney Kingsford Smith International Airport", "Latitude": -33.94609832763672, "Longitude": 151.177001953125, "Municipality": "Sydney", "iso_country": "AU", "Iso_Region": "AU-NSW"}, {"Index": 20432, "ICAO": "NZAA", "Name": "Auckland International Airport", "Latitude": -37.008099, "Longitude": 174.792007, "Municipality": "Auckland", "iso_country": "NZ", "Iso_Region": "NZ-AUK"}, {"Index": 20488, "ICAO": "KMCI", "Name": "Kansas City International Airport", "Latitude": 39.2976, "Longitude": -94.713898, "Municipality": "Kansas City", "iso_country": "US", "Iso_Region": "US-MO"}, {"Index": 20494, "ICAO": "KMCO", "Name": "Orlando International Airport", "Latitude": 28.429399490356445, "Longitude": -81.30899810791016, "Municipality": "Orlando", "iso_country": "US", "Iso_Region": "US-FL"}, {"Index": 20515, "ICAO": "LICC", "Name": "Catania-Fontanarossa Airport", "Latitude": 37.466801, "Longitude": 15.0664, "Municipality": "Catania", "iso_country": "IT", "Iso_Region": "IT-82"}, {"Index": 20522, "ICAO": "LICJ", "Name": "Falcone\u2013Borsellino Airport", "Latitude": 38.175999, "Longitude": 13.091, "Municipality": "Palermo", "iso_country": "IT", "Iso_Region": "IT-82"}, {"Index": 20644, "ICAO": "RJBB", "Name": "Kansai International Airport", "Latitude": 34.427299, "Longitude": 135.244003, "Municipality": "Osaka", "iso_country": "JP", "Iso_Region": "JP-27"}, {"Index": 20650, "ICAO": "KMEM", "Name": "Memphis International Airport", "Latitude": 35.04240036010742, "Longitude": -89.97669982910156, "Municipality": "Memphis", "iso_country": "US", "Iso_Region": "US-TN"}, {"Index": 20675, "ICAO": "LIEE", "Name": "Cagliari Elmas Airport", "Latitude": 39.251499, "Longitude": 9.05428, "Municipality": "Cagliari", "iso_country": "IT", "Iso_Region": "IT-88"}, {"Index": 20685, "ICAO": "LIEO", "Name": "Olbia Costa Smeralda Airport", "Latitude": 40.898701, "Longitude": 9.51763, "Municipality": "Olbia (SS)", "iso_country": "IT", "Iso_Region": "IT-88"}, {"Index": 20954, "ICAO": "KMIA", "Name": "Miami International Airport", "Latitude": 25.79319953918457, "Longitude": -80.29060363769531, "Municipality": "Miami", "iso_country": "US", "Iso_Region": "US-FL"}, {"Index": 20964, "ICAO": "RJFF", "Name": "Fukuoka Airport", "Latitude": 33.585899353027344, "Longitude": 130.4510040283203, "Municipality": "Fukuoka", "iso_country": "JP", "Iso_Region": "JP-40"}, {"Index": 20978, "ICAO": "RJFT", "Name": "Kumamoto Airport", "Latitude": 32.83729934692383, "Longitude": 130.85499572753906, "Municipality": "Kumamoto", "iso_country": "JP", "Iso_Region": "JP-43"}, {"Index": 21005, "ICAO": "ELLX", "Name": "Luxembourg-Findel International Airport", "Latitude": 49.6233333, "Longitude": 6.2044444, "Municipality": "Luxembourg", "iso_country": "LU", "Iso_Region": "LU-L"}, {"Index": 21116, "ICAO": "KMKE", "Name": "General Mitchell International Airport", "Latitude": 42.947200775146484, "Longitude": -87.89659881591797, "Municipality": "Milwaukee", "iso_country": "US", "Iso_Region": "US-WI"}, {"Index": 21305, "ICAO": "LIMC", "Name": "Malpensa International Airport", "Latitude": 45.6306, "Longitude": 8.72811, "Municipality": "Milan", "iso_country": "IT", "Iso_Region": "IT-25"}, {"Index": 21308, "ICAO": "LIMF", "Name": "Turin Airport", "Latitude": 45.200802, "Longitude": 7.64963, "Municipality": "Torino", "iso_country": "IT", "Iso_Region": "IT-21"}, {"Index": 21312, "ICAO": "LIMJ", "Name": "Genoa Cristoforo Colombo Airport", "Latitude": 44.4133, "Longitude": 8.8375, "Municipality": "Genova", "iso_country": "IT", "Iso_Region": "IT-42"}, {"Index": 21544, "ICAO": "LIPE", "Name": "Bologna Guglielmo Marconi Airport", "Latitude": 44.5354, "Longitude": 11.2887, "Municipality": "Bologna", "iso_country": "IT", "Iso_Region": "IT-45"}, {"Index": 21565, "ICAO": "LIPZ", "Name": "Venice Marco Polo Airport", "Latitude": 45.505299, "Longitude": 12.3519, "Municipality": "Venice", "iso_country": "IT", "Iso_Region": "IT-34"}, {"Index": 21684, "ICAO": "RJOO", "Name": "Osaka International Airport", "Latitude": 34.785499572753906, "Longitude": 135.43800354003906, "Municipality": "Osaka", "iso_country": "JP", "Iso_Region": "JP-27"}, {"Index": 21703, "ICAO": "LIRF", "Name": "Leonardo da Vinci\u2013Fiumicino Airport", "Latitude": 41.8002778, "Longitude": 12.2388889, "Municipality": "Rome", "iso_country": "IT", "Iso_Region": "IT-62"}, {"Index": 21711, "ICAO": "LIRN", "Name": "Naples International Airport", "Latitude": 40.886002, "Longitude": 14.2908, "Municipality": "N\u00e1poli", "iso_country": "IT", "Iso_Region": "IT-72"}, {"Index": 21758, "ICAO": "KMSO", "Name": "Missoula International Airport", "Latitude": 46.91630173, "Longitude": -114.0910034, "Municipality": "Missoula", "iso_country": "US", "Iso_Region": "US-MT"}, {"Index": 21759, "ICAO": "KMSP", "Name": "Minneapolis\u2013Saint Paul International Airport / Wold\u2013Chamberlain Field", "Latitude": 44.882, "Longitude": -93.221802, "Municipality": "Minneapolis", "iso_country": "US", "Iso_Region": "US-MN"}, {"Index": 21768, "ICAO": "KMSY", "Name": "Louis Armstrong New Orleans International Airport", "Latitude": 29.99340057373047, "Longitude": -90.25800323486328, "Municipality": "New Orleans", "iso_country": "US", "Iso_Region": "US-LA"}, {"Index": 21816, "ICAO": "TBPB", "Name": "Grantley Adams International Airport", "Latitude": 13.0746, "Longitude": -59.4925, "Municipality": "Bridgetown", "iso_country": "BB", "Iso_Region": "BB-01"}, {"Index": 21832, "ICAO": "KMTJ", "Name": "Montrose Regional Airport", "Latitude": 38.509799957300004, "Longitude": -107.893997192, "Municipality": "Montrose", "iso_country": "US", "Iso_Region": "US-CO"}, {"Index": 22084, "ICAO": "RJTT", "Name": "Tokyo Haneda International Airport", "Latitude": 35.552299, "Longitude": 139.779999, "Municipality": "Tokyo", "iso_country": "JP", "Iso_Region": "JP-13"}, {"Index": 22235, "ICAO": "KMYR", "Name": "Myrtle Beach International Airport", "Latitude": 33.6796989441, "Longitude": -78.9282989502, "Municipality": "Myrtle Beach", "iso_country": "US", "Iso_Region": "US-SC"}, {"Index": 23532, "ICAO": "KABQ", "Name": "Albuquerque International Sunport", "Latitude": 35.040199, "Longitude": -106.609001, "Municipality": "Albuquerque", "iso_country": "US", "Iso_Region": "US-NM"}, {"Index": 23776, "ICAO": "KAEX", "Name": "Alexandria International Airport", "Latitude": 31.3274, "Longitude": -92.549797, "Municipality": "Alexandria", "iso_country": "US", "Iso_Region": "US-LA"}, {"Index": 23869, "ICAO": "UKBB", "Name": "Boryspil International Airport", "Latitude": 50.345001220703125, "Longitude": 30.894699096679688, "Municipality": "Kiev", "iso_country": "UA", "Iso_Region": "UA-32"}, {"Index": 24324, "ICAO": "KALS", "Name": "San Luis Valley Regional Airport/Bergman Field", "Latitude": 37.434898, "Longitude": -105.866997, "Municipality": "Alamosa", "iso_country": "US", "Iso_Region": "US-CO"}, {"Index": 24385, "ICAO": "KAMA", "Name": "Rick Husband Amarillo International Airport", "Latitude": 35.219398, "Longitude": -101.706001, "Municipality": "Amarillo", "iso_country": "US", "Iso_Region": "US-TX"}, {"Index": 24799, "ICAO": "KART", "Name": "Watertown International Airport", "Latitude": 43.99190139770508, "Longitude": -76.02169799804688, "Municipality": "Watertown", "iso_country": "US", "Iso_Region": "US-NY"}, {"Index": 24863, "ICAO": "KASE", "Name": "Aspen-Pitkin Co/Sardy Field", "Latitude": 39.22320175, "Longitude": -106.8690033, "Municipality": "Aspen", "iso_country": "US", "Iso_Region": "US-CO"}, {"Index": 24949, "ICAO": "KATL", "Name": "Hartsfield Jackson Atlanta International Airport", "Latitude": 33.6367, "Longitude": -84.428101, "Municipality": "Atlanta", "iso_country": "US", "Iso_Region": "US-GA"}, {"Index": 25035, "ICAO": "KAUS", "Name": "Austin Bergstrom International Airport", "Latitude": 30.197535, "Longitude": -97.662015, "Municipality": "Austin", "iso_country": "US", "Iso_Region": "US-TX"}, {"Index": 27045, "ICAO": "VTBS", "Name": "Suvarnabhumi Airport", "Latitude": 13.681099891662598, "Longitude": 100.74700164794922, "Municipality": "Bangkok", "iso_country": "TH", "Iso_Region": "TH-10"}, {"Index": 27229, "ICAO": "WPDL", "Name": "Presidente Nicolau Lobato International Airport", "Latitude": -8.54640007019, "Longitude": 125.526000977, "Municipality": "Dili", "iso_country": "TL", "Iso_Region": "TL-DI"}, {"Index": 27350, "ICAO": "FIMP", "Name": "Sir Seewoosagur Ramgoolam International Airport", "Latitude": -20.430201, "Longitude": 57.683601, "Municipality": "Plaine Magnein", "iso_country": "MU", "Iso_Region": "MU-GP"}, {"Index": 28235, "ICAO": "RKSI", "Name": "Incheon International Airport", "Latitude": 37.46910095214844, "Longitude": 126.45099639892578, "Municipality": "Seoul", "iso_country": "KR", "Iso_Region": "KR-28"}, {"Index": 30078, "ICAO": "KBFF", "Name": "Western Neb. Rgnl/William B. Heilig Airport", "Latitude": 41.87400055, "Longitude": -103.5960007, "Municipality": "Scottsbluff", "iso_country": "US", "Iso_Region": "US-NE"}, {"Index": 30243, "ICAO": "KBHM", "Name": "Birmingham-Shuttlesworth International Airport", "Latitude": 33.56290054, "Longitude": -86.75350189, "Municipality": "Birmingham", "iso_country": "US", "Iso_Region": "US-AL"}, {"Index": 30321, "ICAO": "KBIL", "Name": "Billings Logan International Airport", "Latitude": 45.807701110839844, "Longitude": -108.54299926757812, "Municipality": "Billings", "iso_country": "US", "Iso_Region": "US-MT"}, {"Index": 30328, "ICAO": "KBIS", "Name": "Bismarck Municipal Airport", "Latitude": 46.772701263427734, "Longitude": -100.74600219726562, "Municipality": "Bismarck", "iso_country": "US", "Iso_Region": "US-ND"}, {"Index": 30623, "ICAO": "VHHH", "Name": "Hong Kong International Airport", "Latitude": 22.308901, "Longitude": 113.915001, "Municipality": "Hong Kong", "iso_country": "HK", "Iso_Region": "HK-U-A"}, {"Index": 30705, "ICAO": "KBNA", "Name": "Nashville International Airport", "Latitude": 36.1245002746582, "Longitude": -86.6781997680664, "Municipality": "Nashville", "iso_country": "US", "Iso_Region": "US-TN"}, {"Index": 30792, "ICAO": "KBOI", "Name": "Boise Air Terminal/Gowen Field", "Latitude": 43.5644, "Longitude": -116.223, "Municipality": "Boise", "iso_country": "US", "Iso_Region": "US-ID"}, {"Index": 30802, "ICAO": "KBOS", "Name": "Logan International Airport", "Latitude": 42.3643, "Longitude": -71.005203, "Municipality": "Boston", "iso_country": "US", "Iso_Region": "US-MA"}, {"Index": 31154, "ICAO": "LWSK", "Name": "Skopje International Airport", "Latitude": 41.961601, "Longitude": 21.621401, "Municipality": "Skopje", "iso_country": "MK", "Iso_Region": "MK-004"}, {"Index": 31263, "ICAO": "KBUF", "Name": "Buffalo Niagara International Airport", "Latitude": 42.94049835, "Longitude": -78.73220062, "Municipality": "Buffalo", "iso_country": "US", "Iso_Region": "US-NY"}, {"Index": 31289, "ICAO": "PGSN", "Name": "Saipan International Airport", "Latitude": 15.119, "Longitude": 145.729004, "Municipality": "Saipan Island", "iso_country": "MP", "Iso_Region": "MP-U-A"}, {"Index": 31424, "ICAO": "KBWI", "Name": "Baltimore/Washington International Thurgood Marshall Airport", "Latitude": 39.1754, "Longitude": -76.668297, "Municipality": "Baltimore", "iso_country": "US", "Iso_Region": "US-MD"}, {"Index": 31446, "ICAO": "PGUM", "Name": "Antonio B. Won Pat International Airport", "Latitude": 13.4834, "Longitude": 144.796005, "Municipality": "Hag\u00e5t\u00f1a, Guam International Airport", "iso_country": "GU", "Iso_Region": "GU-U-A"}, {"Index": 31611, "ICAO": "PGWT", "Name": "Tinian International Airport", "Latitude": 14.9992, "Longitude": 145.619003, "Municipality": "Tinian Island", "iso_country": "MP", "Iso_Region": "MP-U-A"}, {"Index": 32691, "ICAO": "ENBR", "Name": "Bergen Airport Flesland", "Latitude": 60.29339981, "Longitude": 5.218140125, "Municipality": "Bergen", "iso_country": "NO", "Iso_Region": "NO-12"}, {"Index": 33081, "ICAO": "ENGM", "Name": "Oslo Gardermoen Airport", "Latitude": 60.193901062012, "Longitude": 11.100399971008, "Municipality": "Oslo", "iso_country": "NO", "Iso_Region": "NO-02"}, {"Index": 33596, "ICAO": "KOKC", "Name": "Will Rogers World Airport", "Latitude": 35.39310073852539, "Longitude": -97.60070037841797, "Municipality": "Oklahoma City", "iso_country": "US", "Iso_Region": "US-OK"}, {"Index": 33752, "ICAO": "KOMA", "Name": "Eppley Airfield", "Latitude": 41.3032, "Longitude": -95.894096, "Municipality": "Omaha", "iso_country": "US", "Iso_Region": "US-NE"}, {"Index": 33850, "ICAO": "KONT", "Name": "Ontario International Airport", "Latitude": 34.055999755859375, "Longitude": -117.60099792480469, "Municipality": "Ontario", "iso_country": "US", "Iso_Region": "US-CA"}, {"Index": 34150, "ICAO": "KORD", "Name": "Chicago O'Hare International Airport", "Latitude": 41.9786, "Longitude": -87.9048, "Municipality": "Chicago", "iso_country": "US", "Iso_Region": "US-IL"}, {"Index": 34152, "ICAO": "KORF", "Name": "Norfolk International Airport", "Latitude": 36.89459991455078, "Longitude": -76.20120239257812, "Municipality": "Norfolk", "iso_country": "US", "Iso_Region": "US-VA"}, {"Index": 34254, "ICAO": "ENVA", "Name": "Trondheim Airport V\u00e6rnes", "Latitude": 63.4578018, "Longitude": 10.9239998, "Municipality": "Trondheim", "iso_country": "NO", "Iso_Region": "NO-17"}, {"Index": 34300, "ICAO": "TDPD", "Name": "Douglas-Charles Airport", "Latitude": 15.547, "Longitude": -61.299999, "Municipality": "Marigot", "iso_country": "DM", "Iso_Region": "DM-02"}, {"Index": 34591, "ICAO": "ENZV", "Name": "Stavanger Airport Sola", "Latitude": 58.876701354, "Longitude": 5.6377801895, "Municipality": "Stavanger", "iso_country": "NO", "Iso_Region": "NO-11"}, {"Index": 35732, "ICAO": "EBAW", "Name": "Antwerp International Airport (Deurne)", "Latitude": 51.1894, "Longitude": 4.46028, "Municipality": "Antwerp", "iso_country": "BE", "Iso_Region": "BE-VAN"}, {"Index": 35806, "ICAO": "EBBR", "Name": "Brussels Airport", "Latitude": 50.901401519800004, "Longitude": 4.48443984985, "Municipality": "Brussels", "iso_country": "BE", "Iso_Region": "BE-BRU"}, {"Index": 35925, "ICAO": "KCAG", "Name": "Craig Moffat Airport", "Latitude": 40.4952011108, "Longitude": -107.522003174, "Municipality": "Craig", "iso_country": "US", "Iso_Region": "US-CO"}, {"Index": 36260, "ICAO": "KCEZ", "Name": "Cortez Municipal Airport", "Latitude": 37.3030014038, "Longitude": -108.627998352, "Municipality": "Cortez", "iso_country": "US", "Iso_Region": "US-CO"}, {"Index": 36438, "ICAO": "LXGB", "Name": "Gibraltar Airport", "Latitude": 36.1511993408, "Longitude": -5.3496599197400005, "Municipality": "Gibraltar", "iso_country": "GI", "Iso_Region": "GI-U-A"}, {"Index": 36472, "ICAO": "KCHA", "Name": "Chattanooga Metropolitan Airport (Lovell Field)", "Latitude": 35.035301, "Longitude": -85.203796, "Municipality": "Chattanooga", "iso_country": "US", "Iso_Region": "US-TN"}, {"Index": 36490, "ICAO": "KCHS", "Name": "Charleston International Airport", "Latitude": 32.898602, "Longitude": -80.040497, "Municipality": "Charleston", "iso_country": "US", "Iso_Region": "US-SC"}, {"Index": 36585, "ICAO": "EBLG", "Name": "Li\u00e8ge Airport", "Latitude": 50.63740158081055, "Longitude": 5.443220138549805, "Municipality": "Li\u00e8ge", "iso_country": "BE", "Iso_Region": "BE-WLG"}, {"Index": 36792, "ICAO": "KCLE", "Name": "Cleveland Hopkins International Airport", "Latitude": 41.4117012024, "Longitude": -81.8498001099, "Municipality": "Cleveland", "iso_country": "US", "Iso_Region": "US-OH"}, {"Index": 36807, "ICAO": "KCLT", "Name": "Charlotte Douglas International Airport", "Latitude": 35.2140007019043, "Longitude": -80.94309997558594, "Municipality": "Charlotte", "iso_country": "US", "Iso_Region": "US-NC"}, {"Index": 36875, "ICAO": "KCMI", "Name": "University of Illinois Willard Airport", "Latitude": 40.03919983, "Longitude": -88.27809906, "Municipality": "Champaign/Urbana", "iso_country": "US", "Iso_Region": "US-IL"}, {"Index": 36899, "ICAO": "PHKO", "Name": "Ellison Onizuka Kona International Airport at Keahole", "Latitude": 19.738783, "Longitude": -156.045603, "Municipality": "Kailua-Kona", "iso_country": "US", "Iso_Region": "US-HI"}, {"Index": 36968, "ICAO": "KCNW", "Name": "TSTC Waco Airport", "Latitude": 31.641129, "Longitude": -97.073335, "Municipality": "Waco", "iso_country": "US", "Iso_Region": "US-TX"}, {"Index": 36970, "ICAO": "KCNY", "Name": "Canyonlands Field", "Latitude": 38.75500107, "Longitude": -109.7549973, "Municipality": "Moab", "iso_country": "US", "Iso_Region": "US-UT"}, {"Index": 36972, "ICAO": "PHLI", "Name": "Lihue Airport", "Latitude": 21.97599983215332, "Longitude": -159.33900451660156, "Municipality": "Lihue", "iso_country": "US", "Iso_Region": "US-HI"}, {"Index": 37028, "ICAO": "KCOD", "Name": "Yellowstone Regional Airport", "Latitude": 44.520198822, "Longitude": -109.024002075, "Municipality": "Cody", "iso_country": "US", "Iso_Region": "US-WY"}, {"Index": 37043, "ICAO": "KCOS", "Name": "City of Colorado Springs Municipal Airport", "Latitude": 38.805801, "Longitude": -104.700996, "Municipality": "Colorado Springs", "iso_country": "US", "Iso_Region": "US-CO"}, {"Index": 37121, "ICAO": "KCPR", "Name": "Casper-Natrona County International Airport", "Latitude": 42.908001, "Longitude": -106.463997, "Municipality": "Casper", "iso_country": "US", "Iso_Region": "US-WY"}, {"Index": 37133, "ICAO": "PHNL", "Name": "Daniel K Inouye International Airport", "Latitude": 21.32062, "Longitude": -157.924228, "Municipality": "Honolulu", "iso_country": "US", "Iso_Region": "US-HI"}, {"Index": 37146, "ICAO": "PHNY", "Name": "Lanai Airport", "Latitude": 20.785600662231445, "Longitude": -156.9510040283203, "Municipality": "Lanai City", "iso_country": "US", "Iso_Region": "US-HI"}, {"Index": 37207, "ICAO": "PHOG", "Name": "Kahului Airport", "Latitude": 20.8986, "Longitude": -156.429993, "Municipality": "Kahului", "iso_country": "US", "Iso_Region": "US-HI"}, {"Index": 37428, "ICAO": "TQPF", "Name": "Clayton J Lloyd International Airport", "Latitude": 18.204773, "Longitude": -63.05383, "Municipality": "The Valley", "iso_country": "AI", "Iso_Region": "AI-U-A"}, {"Index": 37610, "ICAO": "PHTO", "Name": "Hilo International Airport", "Latitude": 19.721399307250977, "Longitude": -155.04800415039062, "Municipality": "Hilo", "iso_country": "US", "Iso_Region": "US-HI"}, {"Index": 37833, "ICAO": "KCYS", "Name": "Cheyenne Regional Jerry Olson Field", "Latitude": 41.15570068, "Longitude": -104.8119965, "Municipality": "Cheyenne", "iso_country": "US", "Iso_Region": "US-WY"}, {"Index": 39049, "ICAO": "KPAE", "Name": "Snohomish County (Paine Field) Airport", "Latitude": 47.9063, "Longitude": -122.281998, "Municipality": "Everett", "iso_country": "US", "Iso_Region": "US-WA"}, {"Index": 39163, "ICAO": "LLBG", "Name": "Ben Gurion International Airport", "Latitude": 32.01139831542969, "Longitude": 34.88669967651367, "Municipality": "Tel Aviv", "iso_country": "IL", "Iso_Region": "IL-M"}, {"Index": 39305, "ICAO": "KPDX", "Name": "Portland International Airport", "Latitude": 45.58869934, "Longitude": -122.5979996, "Municipality": "Portland", "iso_country": "US", "Iso_Region": "US-OR"}, {"Index": 39609, "ICAO": "KPHL", "Name": "Philadelphia International Airport", "Latitude": 39.87189865112305, "Longitude": -75.24109649658203, "Municipality": "Philadelphia", "iso_country": "US", "Iso_Region": "US-PA"}, {"Index": 39621, "ICAO": "KPHX", "Name": "Phoenix Sky Harbor International Airport", "Latitude": 33.435302, "Longitude": -112.005905, "Municipality": "Phoenix", "iso_country": "US", "Iso_Region": "US-AZ"}, {"Index": 39684, "ICAO": "KPIH", "Name": "Pocatello Regional Airport", "Latitude": 42.9098014831543, "Longitude": -112.59600067138672, "Municipality": "Pocatello", "iso_country": "US", "Iso_Region": "US-ID"}, {"Index": 39694, "ICAO": "KPIR", "Name": "Pierre Regional Airport", "Latitude": 44.38270187, "Longitude": -100.2860031, "Municipality": "Pierre", "iso_country": "US", "Iso_Region": "US-SD"}, {"Index": 39696, "ICAO": "KPIT", "Name": "Pittsburgh International Airport", "Latitude": 40.49150085, "Longitude": -80.23290253, "Municipality": "Pittsburgh", "iso_country": "US", "Iso_Region": "US-PA"}, {"Index": 40090, "ICAO": "KPNS", "Name": "Pensacola International Airport", "Latitude": 30.4734, "Longitude": -87.1866, "Municipality": "Pensacola", "iso_country": "US", "Iso_Region": "US-FL"}, {"Index": 40626, "ICAO": "KPUB", "Name": "Pueblo Memorial Airport", "Latitude": 38.289101, "Longitude": -104.497002, "Municipality": "Pueblo", "iso_country": "US", "Iso_Region": "US-CO"}, {"Index": 40631, "ICAO": "VVPQ", "Name": "Phu Quoc International Airport", "Latitude": 10.1698, "Longitude": 103.9931, "Municipality": "Phu Quoc Island", "iso_country": "VN", "Iso_Region": "VN-47"}, {"Index": 40949, "ICAO": "VVTS", "Name": "Tan Son Nhat International Airport", "Latitude": 10.8188, "Longitude": 106.652, "Municipality": "Ho Chi Minh City", "iso_country": "VN", "Iso_Region": "VN-23"}, {"Index": 42161, "ICAO": "KDAB", "Name": "Daytona Beach International Airport", "Latitude": 29.179899, "Longitude": -81.058098, "Municipality": "Daytona Beach", "iso_country": "US", "Iso_Region": "US-FL"}, {"Index": 42287, "ICAO": "LYBE", "Name": "Belgrade Nikola Tesla Airport", "Latitude": 44.8184013367, "Longitude": 20.3090991974, "Municipality": "Belgrade", "iso_country": "RS", "Iso_Region": "RS-00"}, {"Index": 42303, "ICAO": "OMAA", "Name": "Abu Dhabi International Airport", "Latitude": 24.443764, "Longitude": 54.651718, "Municipality": "Abu Dhabi", "iso_country": "AE", "Iso_Region": "AE-AZ"}, {"Index": 42489, "ICAO": "KDEN", "Name": "Denver International Airport", "Latitude": 39.861698150635, "Longitude": -104.672996521, "Municipality": "Denver", "iso_country": "US", "Iso_Region": "US-CO"}, {"Index": 42541, "ICAO": "OMDB", "Name": "Dubai International Airport", "Latitude": 25.2527999878, "Longitude": 55.3643989563, "Municipality": "Dubai", "iso_country": "AE", "Iso_Region": "AE-DU"}, {"Index": 42577, "ICAO": "KDFW", "Name": "Dallas Fort Worth International Airport", "Latitude": 32.896801, "Longitude": -97.038002, "Municipality": "Dallas-Fort Worth", "iso_country": "US", "Iso_Region": "US-TX"}, {"Index": 43517, "ICAO": "KDRO", "Name": "Durango La Plata County Airport", "Latitude": 37.1515007019, "Longitude": -107.753997803, "Municipality": "Durango", "iso_country": "US", "Iso_Region": "US-CO"}, {"Index": 43594, "ICAO": "KDSM", "Name": "Des Moines International Airport", "Latitude": 41.534, "Longitude": -93.663101, "Municipality": "Des Moines", "iso_country": "US", "Iso_Region": "US-IA"}, {"Index": 43683, "ICAO": "KDTW", "Name": "Detroit Metropolitan Wayne County Airport", "Latitude": 42.212398529052734, "Longitude": -83.35340118408203, "Municipality": "Detroit", "iso_country": "US", "Iso_Region": "US-MI"}, {"Index": 43876, "ICAO": "ZSPD", "Name": "Shanghai Pudong International Airport", "Latitude": 31.1434, "Longitude": 121.805, "Municipality": "Shanghai (Pudong)", "iso_country": "CN", "Iso_Region": "CN-31"}, {"Index": 45554, "ICAO": "EPGD", "Name": "Gda\u0144sk Lech Wa\u0142\u0119sa Airport", "Latitude": 54.377601623535156, "Longitude": 18.46619987487793, "Municipality": "Gda\u0144sk", "iso_country": "PL", "Iso_Region": "PL-PM"}, {"Index": 45877, "ICAO": "EPKK", "Name": "Krak\u00f3w John Paul II International Airport", "Latitude": 50.077702, "Longitude": 19.7848, "Municipality": "Krak\u00f3w", "iso_country": "PL", "Iso_Region": "PL-MA"}, {"Index": 45957, "ICAO": "EPLL", "Name": "\u0141\u00f3d\u017a W\u0142adys\u0142aw Reymont Airport", "Latitude": 51.721900939899996, "Longitude": 19.3980998993, "Municipality": "\u0141\u00f3d\u017a", "iso_country": "PL", "Iso_Region": "PL-LD"}, {"Index": 46278, "ICAO": "LMML", "Name": "Malta International Airport", "Latitude": 35.857498, "Longitude": 14.4775, "Municipality": "Valletta", "iso_country": "MT", "Iso_Region": "MT-25"}, {"Index": 46445, "ICAO": "EPRZ", "Name": "Rzesz\u00f3w-Jasionka Airport", "Latitude": 50.110001, "Longitude": 22.018999, "Municipality": "Rzesz\u00f3w", "iso_country": "PL", "Iso_Region": "PL-PK"}, {"Index": 46523, "ICAO": "EPSY", "Name": "Olsztyn-Mazury Airport", "Latitude": 53.481899, "Longitude": 20.9377, "Municipality": "Olsztyn", "iso_country": "PL", "Iso_Region": "PL-WN"}, {"Index": 46545, "ICAO": "DTTA", "Name": "Tunis Carthage International Airport", "Latitude": 36.85100173950195, "Longitude": 10.22719955444336, "Municipality": "Tunis", "iso_country": "TN", "Iso_Region": "TN-11"}, {"Index": 46815, "ICAO": "EPWA", "Name": "Warsaw Chopin Airport", "Latitude": 52.1656990051, "Longitude": 20.967100143399996, "Municipality": "Warsaw", "iso_country": "PL", "Iso_Region": "PL-MZ"}, {"Index": 47144, "ICAO": "WSSS", "Name": "Singapore Changi Airport", "Latitude": 1.35019, "Longitude": 103.994003, "Municipality": "Singapore", "iso_country": "SG", "Iso_Region": "SG-04"}, {"Index": 48430, "ICAO": "EDDB", "Name": "Berlin Brandenburg Airport", "Latitude": 52.351389, "Longitude": 13.493889, "Municipality": "Berlin", "iso_country": "DE", "Iso_Region": "DE-BR"}, {"Index": 48434, "ICAO": "EDDF", "Name": "Frankfurt am Main Airport", "Latitude": 50.033333, "Longitude": 8.570556, "Municipality": "Frankfurt am Main", "iso_country": "DE", "Iso_Region": "DE-HE"}, {"Index": 48436, "ICAO": "EDDH", "Name": "Hamburg Helmut Schmidt Airport", "Latitude": 53.630402, "Longitude": 9.98823, "Municipality": "Hamburg", "iso_country": "DE", "Iso_Region": "DE-HH"}, {"Index": 48439, "ICAO": "EDDK", "Name": "Cologne Bonn Airport", "Latitude": 50.8658981323, "Longitude": 7.1427397728, "Municipality": "Cologne", "iso_country": "DE", "Iso_Region": "DE-NW"}, {"Index": 48440, "ICAO": "EDDL", "Name": "D\u00fcsseldorf Airport", "Latitude": 51.289501, "Longitude": 6.76678, "Municipality": "D\u00fcsseldorf", "iso_country": "DE", "Iso_Region": "DE-NW"}, {"Index": 48441, "ICAO": "EDDM", "Name": "Munich Airport", "Latitude": 48.353802, "Longitude": 11.7861, "Municipality": "Munich", "iso_country": "DE", "Iso_Region": "DE-BY"}, {"Index": 48450, "ICAO": "EDDV", "Name": "Hannover Airport", "Latitude": 52.461101532, "Longitude": 9.685079574580001, "Municipality": "Hannover", "iso_country": "DE", "Iso_Region": "DE-NI"}, {"Index": 48451, "ICAO": "EDDW", "Name": "Bremen Airport", "Latitude": 53.0475006104, "Longitude": 8.78666973114, "Municipality": "Bremen", "iso_country": "DE", "Iso_Region": "DE-HB"}, {"Index": 48753, "ICAO": "EDHI", "Name": "Hamburg-Finkenwerder Airport", "Latitude": 53.5352783203125, "Longitude": 9.835556030273438, "Municipality": "Hamburg", "iso_country": "DE", "Iso_Region": "DE-HH"}, {"Index": 48879, "ICAO": "KEGE", "Name": "Eagle County Regional Airport", "Latitude": 39.64260101, "Longitude": -106.9179993, "Municipality": "Eagle", "iso_country": "US", "Iso_Region": "US-CO"}, {"Index": 49285, "ICAO": "KELP", "Name": "El Paso International Airport", "Latitude": 31.80719948, "Longitude": -106.3779984, "Municipality": "El Paso", "iso_country": "US", "Iso_Region": "US-TX"}, {"Index": 50031, "ICAO": "EDXW", "Name": "Westerland Sylt Airport", "Latitude": 54.9132003784, "Longitude": 8.34047031403, "Municipality": "Westerland", "iso_country": "DE", "Iso_Region": "DE-SH"}, {"Index": 51542, "ICAO": "KRAP", "Name": "Rapid City Regional Airport", "Latitude": 44.0452995300293, "Longitude": -103.05699920654297, "Municipality": "Rapid City", "iso_country": "US", "Iso_Region": "US-SD"}, {"Index": 51574, "ICAO": "CYEG", "Name": "Edmonton International Airport", "Latitude": 53.309700012200004, "Longitude": -113.580001831, "Municipality": "Edmonton", "iso_country": "CA", "Iso_Region": "CA-AB"}, {"Index": 51575, "ICAO": "HECA", "Name": "Cairo International Airport", "Latitude": 30.12190055847168, "Longitude": 31.40559959411621, "Municipality": "Cairo", "iso_country": "EG", "Iso_Region": "EG-C"}, {"Index": 51808, "ICAO": "CYHD", "Name": "Dryden Regional Airport", "Latitude": 49.831699, "Longitude": -92.744202, "Municipality": "Dryden", "iso_country": "CA", "Iso_Region": "CA-ON"}, {"Index": 51830, "ICAO": "CYHZ", "Name": "Halifax / Stanfield International Airport", "Latitude": 44.8807983398, "Longitude": -63.5085983276, "Municipality": "Halifax", "iso_country": "CA", "Iso_Region": "CA-NS"}, {"Index": 51895, "ICAO": "SKBO", "Name": "El Dorado International Airport", "Latitude": 4.70159, "Longitude": -74.1469, "Municipality": "Bogota", "iso_country": "CO", "Iso_Region": "CO-CUN"}, {"Index": 52181, "ICAO": "KRIW", "Name": "Riverton Regional Airport", "Latitude": 43.064201355, "Longitude": -108.459999084, "Municipality": "Riverton", "iso_country": "US", "Iso_Region": "US-WY"}, {"Index": 52335, "ICAO": "KRKS", "Name": "Southwest Wyoming Regional Airport", "Latitude": 41.5942, "Longitude": -109.065001, "Municipality": "Rock Springs", "iso_country": "US", "Iso_Region": "US-WY"}, {"Index": 52380, "ICAO": "CYOW", "Name": "Ottawa Macdonald-Cartier International Airport", "Latitude": 45.3224983215332, "Longitude": -75.66919708251953, "Municipality": "Ottawa", "iso_country": "CA", "Iso_Region": "CA-ON"}, {"Index": 52517, "ICAO": "CYQB", "Name": "Quebec Jean Lesage International Airport", "Latitude": 46.7911, "Longitude": -71.393303, "Municipality": "Quebec", "iso_country": "CA", "Iso_Region": "CA-QC"}, {"Index": 52535, "ICAO": "CYQT", "Name": "Thunder Bay Airport", "Latitude": 48.37189865112305, "Longitude": -89.32389831542969, "Municipality": "Thunder Bay", "iso_country": "CA", "Iso_Region": "CA-ON"}, {"Index": 52539, "ICAO": "CYQX", "Name": "Gander International Airport", "Latitude": 48.9369010925293, "Longitude": -54.56809997558594, "Municipality": "Gander", "iso_country": "CA", "Iso_Region": "CA-NL"}, {"Index": 52568, "ICAO": "KRNO", "Name": "Reno Tahoe International Airport", "Latitude": 39.49909973144531, "Longitude": -119.76799774169922, "Municipality": "Reno", "iso_country": "US", "Iso_Region": "US-NV"}, {"Index": 52843, "ICAO": "CYUL", "Name": "Montreal / Pierre Elliott Trudeau International Airport", "Latitude": 45.4706001282, "Longitude": -73.7407989502, "Municipality": "Montr\u00e9al", "iso_country": "CA", "Iso_Region": "CA-QC"}, {"Index": 52928, "ICAO": "CYVR", "Name": "Vancouver International Airport", "Latitude": 49.193901062, "Longitude": -123.183998108, "Municipality": "Vancouver", "iso_country": "CA", "Iso_Region": "CA-BC"}, {"Index": 52996, "ICAO": "CYWG", "Name": "Winnipeg / James Armstrong Richardson International Airport", "Latitude": 49.909999847399995, "Longitude": -97.2398986816, "Municipality": "Winnipeg", "iso_country": "CA", "Iso_Region": "CA-MB"}, {"Index": 53080, "ICAO": "CYXL", "Name": "Sioux Lookout Airport", "Latitude": 50.11389923095703, "Longitude": -91.9052963256836, "Municipality": "Sioux Lookout", "iso_country": "CA", "Iso_Region": "CA-ON"}, {"Index": 53150, "ICAO": "CYYC", "Name": "Calgary International Airport", "Latitude": 51.113899231, "Longitude": -114.019996643, "Municipality": "Calgary", "iso_country": "CA", "Iso_Region": "CA-AB"}, {"Index": 53167, "ICAO": "CYYT", "Name": "St. John's International Airport", "Latitude": 47.618598938, "Longitude": -52.7518997192, "Municipality": "St. John's", "iso_country": "CA", "Iso_Region": "CA-NL"}, {"Index": 53173, "ICAO": "CYYZ", "Name": "Lester B. Pearson International Airport", "Latitude": 43.6772003174, "Longitude": -79.63059997559999, "Municipality": "Toronto", "iso_country": "CA", "Iso_Region": "CA-ON"}, {"Index": 53232, "ICAO": "CYZF", "Name": "Yellowknife International Airport", "Latitude": 62.462799, "Longitude": -114.440002, "Municipality": "Yellowknife", "iso_country": "CA", "Iso_Region": "CA-NT"}, {"Index": 54643, "ICAO": "FACT", "Name": "Cape Town International Airport", "Latitude": -33.9648017883, "Longitude": 18.6016998291, "Municipality": "Cape Town", "iso_country": "ZA", "Iso_Region": "ZA-WC"}, {"Index": 55517, "ICAO": "KFLG", "Name": "Flagstaff Pulliam International Airport", "Latitude": 35.1385, "Longitude": -111.670998, "Municipality": "Flagstaff", "iso_country": "US", "Iso_Region": "US-AZ"}, {"Index": 55589, "ICAO": "FAOR", "Name": "OR Tambo International Airport", "Latitude": -26.1392, "Longitude": 28.246, "Municipality": "Johannesburg", "iso_country": "ZA", "Iso_Region": "ZA-GT"}, {"Index": 55603, "ICAO": "KFMN", "Name": "Four Corners Regional Airport", "Latitude": 36.741199493399996, "Longitude": -108.230003357, "Municipality": "Farmington", "iso_country": "US", "Iso_Region": "US-NM"}, {"Index": 55680, "ICAO": "KFNL", "Name": "Northern Colorado Regional Airport", "Latitude": 40.448763, "Longitude": -105.011244, "Municipality": "Loveland", "iso_country": "US", "Iso_Region": "US-CO"}, {"Index": 55751, "ICAO": "OOMS", "Name": "Muscat International Airport", "Latitude": 23.593299865722656, "Longitude": 58.284400939941406, "Municipality": "Muscat", "iso_country": "OM", "Iso_Region": "OM-MA"}, {"Index": 56067, "ICAO": "KFSD", "Name": "Sioux Falls Regional Airport / Joe Foss Field", "Latitude": 43.585463, "Longitude": -96.741152, "Municipality": "Sioux Falls", "iso_country": "US", "Iso_Region": "US-SD"}, {"Index": 56076, "ICAO": "KFSM", "Name": "Fort Smith Regional Airport", "Latitude": 35.33660125732422, "Longitude": -94.36740112304688, "Municipality": "Fort Smith", "iso_country": "US", "Iso_Region": "US-AR"}, {"Index": 56102, "ICAO": "LBSF", "Name": "Sofia Airport", "Latitude": 42.696693420410156, "Longitude": 23.411436080932617, "Municipality": "Sofia", "iso_country": "BG", "Iso_Region": "BG-23"}, {"Index": 56161, "ICAO": "TTPP", "Name": "Piarco International Airport", "Latitude": 10.595399856567383, "Longitude": -61.33720016479492, "Municipality": "Port of Spain", "iso_country": "TT", "Iso_Region": "TT-TUP"}, {"Index": 56400, "ICAO": "RCTP", "Name": "Taiwan Taoyuan International Airport", "Latitude": 25.0777, "Longitude": 121.233002, "Municipality": "Taipei", "iso_country": "TW", "Iso_Region": "TW-TAO"}, {"Index": 56426, "ICAO": "LBWN", "Name": "Varna Airport", "Latitude": 43.232101, "Longitude": 27.8251, "Municipality": "Varna", "iso_country": "BG", "Iso_Region": "BG-03"}, {"Index": 57781, "ICAO": "KSAN", "Name": "San Diego International Airport", "Latitude": 32.7336006165, "Longitude": -117.190002441, "Municipality": "San Diego", "iso_country": "US", "Iso_Region": "US-CA"}, {"Index": 57787, "ICAO": "KSAT", "Name": "San Antonio International Airport", "Latitude": 29.533701, "Longitude": -98.469803, "Municipality": "San Antonio", "iso_country": "US", "Iso_Region": "US-TX"}, {"Index": 57789, "ICAO": "KSAV", "Name": "Savannah Hilton Head International Airport", "Latitude": 32.12760162, "Longitude": -81.20210266, "Municipality": "Savannah", "iso_country": "US", "Iso_Region": "US-GA"}, {"Index": 57865, "ICAO": "KSBS", "Name": "Steamboat Springs Bob Adams Field", "Latitude": 40.5163002, "Longitude": -106.8659973, "Municipality": "Steamboat Springs", "iso_country": "US", "Iso_Region": "US-CO"}, {"Index": 58010, "ICAO": "KSDF", "Name": "Louisville Muhammad Ali International Airport", "Latitude": 38.1744, "Longitude": -85.736, "Municipality": "Louisville", "iso_country": "US", "Iso_Region": "US-KY"}, {"Index": 58084, "ICAO": "KSEA", "Name": "Seattle Tacoma International Airport", "Latitude": 47.449001, "Longitude": -122.308998, "Municipality": "Seattle", "iso_country": "US", "Iso_Region": "US-WA"}, {"Index": 58177, "ICAO": "KSFO", "Name": "San Francisco International Airport", "Latitude": 37.61899948120117, "Longitude": -122.375, "Municipality": "San Francisco", "iso_country": "US", "Iso_Region": "US-CA"}, {"Index": 58338, "ICAO": "KSHR", "Name": "Sheridan County Airport", "Latitude": 44.76919937133789, "Longitude": -106.9800033569336, "Municipality": "Sheridan", "iso_country": "US", "Iso_Region": "US-WY"}, {"Index": 58342, "ICAO": "KSHV", "Name": "Shreveport Regional Airport", "Latitude": 32.446602, "Longitude": -93.8256, "Municipality": "Shreveport", "iso_country": "US", "Iso_Region": "US-LA"}, {"Index": 58481, "ICAO": "KSJC", "Name": "Norman Y. Mineta San Jose International Airport", "Latitude": 37.362598, "Longitude": -121.929001, "Municipality": "San Jose", "iso_country": "US", "Iso_Region": "US-CA"}, {"Index": 58498, "ICAO": "KSJT", "Name": "San Angelo Regional Mathis Field", "Latitude": 31.35770034790039, "Longitude": -100.49600219726562, "Municipality": "San Angelo", "iso_country": "US", "Iso_Region": "US-TX"}, {"Index": 58560, "ICAO": "MKJP", "Name": "Norman Manley International Airport", "Latitude": 17.935699462890625, "Longitude": -76.7874984741211, "Municipality": "Kingston", "iso_country": "JM", "Iso_Region": "JM-01"}, {"Index": 58563, "ICAO": "MKJS", "Name": "Sangster International Airport", "Latitude": 18.503700256347656, "Longitude": -77.91339874267578, "Municipality": "Montego Bay", "iso_country": "JM", "Iso_Region": "JM-08"}, {"Index": 58639, "ICAO": "KSLC", "Name": "Salt Lake City International Airport", "Latitude": 40.785749, "Longitude": -111.979746, "Municipality": "Salt Lake City", "iso_country": "US", "Iso_Region": "US-UT"}, {"Index": 58721, "ICAO": "KSMF", "Name": "Sacramento International Airport", "Latitude": 38.69540023803711, "Longitude": -121.59100341796875, "Municipality": "Sacramento", "iso_country": "US", "Iso_Region": "US-CA"}, {"Index": 58890, "ICAO": "RPLL", "Name": "Ninoy Aquino International Airport", "Latitude": 14.5086, "Longitude": 121.019997, "Municipality": "Manila", "iso_country": "PH", "Iso_Region": "PH-00"}, {"Index": 58971, "ICAO": "KSPS", "Name": "Sheppard Air Force Base-Wichita Falls Municipal Airport", "Latitude": 33.9888, "Longitude": -98.491898, "Municipality": "Wichita Falls", "iso_country": "US", "Iso_Region": "US-TX"}, {"Index": 59211, "ICAO": "YMML", "Name": "Melbourne International Airport", "Latitude": -37.673302, "Longitude": 144.843002, "Municipality": "Melbourne", "iso_country": "AU", "Iso_Region": "AU-VIC"}, {"Index": 59280, "ICAO": "KSTL", "Name": "St Louis Lambert International Airport", "Latitude": 38.748697, "Longitude": -90.370003, "Municipality": "St Louis", "iso_country": "US", "Iso_Region": "US-MO"}, {"Index": 59547, "ICAO": "LOWI", "Name": "Innsbruck Airport", "Latitude": 47.260201, "Longitude": 11.344, "Municipality": "Innsbruck", "iso_country": "AT", "Iso_Region": "AT-7"}, {"Index": 59549, "ICAO": "LOWK", "Name": "Klagenfurt Airport", "Latitude": 46.642502, "Longitude": 14.3377, "Municipality": "Klagenfurt am W\u00f6rthersee", "iso_country": "AT", "Iso_Region": "AT-2"}, {"Index": 59557, "ICAO": "LOWS", "Name": "Salzburg Airport", "Latitude": 47.793300628699996, "Longitude": 13.0043001175, "Municipality": "Salzburg", "iso_country": "AT", "Iso_Region": "AT-5"}, {"Index": 59561, "ICAO": "LOWW", "Name": "Vienna International Airport", "Latitude": 48.110298, "Longitude": 16.5697, "Municipality": "Vienna", "iso_country": "AT", "Iso_Region": "AT-9"}, {"Index": 59669, "ICAO": "RPVA", "Name": "Daniel Z. Romualdez Airport", "Latitude": 11.228035, "Longitude": 125.027761, "Municipality": "Tacloban City", "iso_country": "PH", "Iso_Region": "PH-LEY"}, {"Index": 59681, "ICAO": "RPVM", "Name": "Mactan Cebu International Airport", "Latitude": 10.307499885559, "Longitude": 123.97899627686, "Municipality": "Lapu-Lapu City", "iso_country": "PH", "Iso_Region": "PH-CEB"}, {"Index": 59681, "ICAO": "KSYR", "Name": "Syracuse Hancock International Airport", "Latitude": 43.11119842529297, "Longitude": -76.1063003540039, "Municipality": "Syracuse", "iso_country": "US", "Iso_Region": "US-NY"}, {"Index": 61043, "ICAO": "KGCC", "Name": "Gillette Campbell County Airport", "Latitude": 44.348899841299996, "Longitude": -105.539001465, "Municipality": "Gillette", "iso_country": "US", "Iso_Region": "US-WY"}, {"Index": 61205, "ICAO": "KGEG", "Name": "Spokane International Airport", "Latitude": 47.61989974975586, "Longitude": -117.53399658203125, "Municipality": "Spokane", "iso_country": "US", "Iso_Region": "US-WA"}, {"Index": 61237, "ICAO": "EFHK", "Name": "Helsinki Vantaa Airport", "Latitude": 60.3172, "Longitude": 24.963301, "Municipality": "Helsinki", "iso_country": "FI", "Iso_Region": "FI-18"}, {"Index": 61336, "ICAO": "SYCJ", "Name": "Cheddi Jagan International Airport", "Latitude": 6.498549938201904, "Longitude": -58.25410079956055, "Municipality": "Georgetown", "iso_country": "GY", "Iso_Region": "GY-DE"}, {"Index": 61363, "ICAO": "KGGG", "Name": "East Texas Regional Airport", "Latitude": 32.38399887084961, "Longitude": -94.71150207519531, "Municipality": "Longview", "iso_country": "US", "Iso_Region": "US-TX"}, {"Index": 61613, "ICAO": "KGJT", "Name": "Grand Junction Regional Airport", "Latitude": 39.1223983765, "Longitude": -108.527000427, "Municipality": "Grand Junction", "iso_country": "US", "Iso_Region": "US-CO"}, {"Index": 61795, "ICAO": "LCLK", "Name": "Larnaca International Airport", "Latitude": 34.875099, "Longitude": 33.624901, "Municipality": "Larnaca", "iso_country": "CY", "Iso_Region": "CY-04"}, {"Index": 61911, "ICAO": "KGNB", "Name": "Granby Grand County Airport", "Latitude": 40.089698791503906, "Longitude": -105.91699981689453, "Municipality": "Granby", "iso_country": "US", "Iso_Region": "US-CO"}, {"Index": 61941, "ICAO": "WIII", "Name": "Soekarno-Hatta International Airport", "Latitude": -6.1255698204, "Longitude": 106.65599823, "Municipality": "Jakarta", "iso_country": "ID", "Iso_Region": "ID-BT"}, {"Index": 62076, "ICAO": "KGPI", "Name": "Glacier Park International Airport", "Latitude": 48.31050109863281, "Longitude": -114.25599670410156, "Municipality": "Kalispell", "iso_country": "US", "Iso_Region": "US-MT"}, {"Index": 62108, "ICAO": "LCPH", "Name": "Paphos International Airport", "Latitude": 34.71799850463867, "Longitude": 32.48569869995117, "Municipality": "Paphos", "iso_country": "CY", "Iso_Region": "CY-06"}, {"Index": 62227, "ICAO": "KGRB", "Name": "Austin Straubel International Airport", "Latitude": 44.48509979248047, "Longitude": -88.12960052490234, "Municipality": "Green Bay", "iso_country": "US", "Iso_Region": "US-WI"}, {"Index": 62234, "ICAO": "KGRI", "Name": "Central Nebraska Regional Airport", "Latitude": 40.967498779296875, "Longitude": -98.30960083007812, "Municipality": "Grand Island", "iso_country": "US", "Iso_Region": "US-NE"}, {"Index": 62320, "ICAO": "KGSP", "Name": "Greenville Spartanburg International Airport", "Latitude": 34.895699, "Longitude": -82.218903, "Municipality": "Greer", "iso_country": "US", "Iso_Region": "US-SC"}, {"Index": 62389, "ICAO": "KGTF", "Name": "Great Falls International Airport", "Latitude": 47.48199844, "Longitude": -111.3710022, "Municipality": "Great Falls", "iso_country": "US", "Iso_Region": "US-MT"}, {"Index": 62396, "ICAO": "TUPJ", "Name": "Terrance B. Lettsome International Airport", "Latitude": 18.445492, "Longitude": -64.541707, "Municipality": "Road Town", "iso_country": "VG", "Iso_Region": "VG-U-A"}, {"Index": 62465, "ICAO": "KGUC", "Name": "Gunnison Crested Butte Regional Airport", "Latitude": 38.53390121, "Longitude": -106.9329987, "Municipality": "Gunnison", "iso_country": "US", "Iso_Region": "US-CO"}, {"Index": 64348, "ICAO": "KTEX", "Name": "Telluride Regional Airport", "Latitude": 37.9538002, "Longitude": -107.9079971, "Municipality": "Telluride", "iso_country": "US", "Iso_Region": "US-CO"}, {"Index": 64454, "ICAO": "LPFR", "Name": "Faro Airport", "Latitude": 37.0144004822, "Longitude": -7.96590995789, "Municipality": "Faro", "iso_country": "PT", "Iso_Region": "PT-08"}, {"Index": 64463, "ICAO": "VABB", "Name": "Chhatrapati Shivaji International Airport", "Latitude": 19.0886993408, "Longitude": 72.8678970337, "Municipality": "Mumbai", "iso_country": "IN", "Iso_Region": "IN-MM"}, {"Index": 64885, "ICAO": "KTLH", "Name": "Tallahassee Regional Airport", "Latitude": 30.396499633789062, "Longitude": -84.35030364990234, "Municipality": "Tallahassee", "iso_country": "US", "Iso_Region": "US-FL"}, {"Index": 64990, "ICAO": "LPMA", "Name": "Madeira Airport", "Latitude": 32.697899, "Longitude": -16.7745, "Municipality": "Funchal", "iso_country": "PT", "Iso_Region": "PT-30"}, {"Index": 65010, "ICAO": "SMJP", "Name": "Johan Adolf Pengel International Airport", "Latitude": 5.45283, "Longitude": -55.187801, "Municipality": "Zandery", "iso_country": "SR", "Iso_Region": "SR-PR"}, {"Index": 65126, "ICAO": "KTOL", "Name": "Toledo Express Airport", "Latitude": 41.5868, "Longitude": -83.8078, "Municipality": "Toledo", "iso_country": "US", "Iso_Region": "US-OH"}, {"Index": 65222, "ICAO": "ESSA", "Name": "Stockholm-Arlanda Airport", "Latitude": 59.651901245117, "Longitude": 17.918600082397, "Municipality": "Stockholm", "iso_country": "SE", "Iso_Region": "SE-AB"}, {"Index": 65244, "ICAO": "LPPR", "Name": "Francisco de S\u00e1 Carneiro Airport", "Latitude": 41.2481002808, "Longitude": -8.68138980865, "Municipality": "Porto", "iso_country": "PT", "Iso_Region": "PT-13"}, {"Index": 65246, "ICAO": "LPPT", "Name": "Humberto Delgado Airport (Lisbon Portela Airport)", "Latitude": 38.7813, "Longitude": -9.13592, "Municipality": "Lisbon", "iso_country": "PT", "Iso_Region": "PT-11"}, {"Index": 65758, "ICAO": "TIST", "Name": "Cyril E. King Airport", "Latitude": 18.337299346923828, "Longitude": -64.97339630126953, "Municipality": "Charlotte Amalie, Harry S. Truman Airport", "iso_country": "VI", "Iso_Region": "VI-U-A"}, {"Index": 65762, "ICAO": "TISX", "Name": "Henry E Rohlsen Airport", "Latitude": 17.701900482177734, "Longitude": -64.79859924316406, "Municipality": "Christiansted", "iso_country": "VI", "Iso_Region": "VI-U-A"}, {"Index": 65922, "ICAO": "KTYR", "Name": "Tyler Pounds Regional Airport", "Latitude": 32.35409927368164, "Longitude": -95.40239715576172, "Municipality": "Tyler", "iso_country": "US", "Iso_Region": "US-TX"}, {"Index": 65923, "ICAO": "KTYS", "Name": "McGhee Tyson Airport", "Latitude": 35.81100082, "Longitude": -83.9940033, "Municipality": "Knoxville", "iso_country": "US", "Iso_Region": "US-TN"}, {"Index": 66915, "ICAO": "EGAA", "Name": "Belfast International Airport", "Latitude": 54.6575012207, "Longitude": -6.2158298492399995, "Municipality": "Belfast", "iso_country": "GB", "Iso_Region": "GB-NIR"}, {"Index": 67075, "ICAO": "EGCC", "Name": "Manchester Airport", "Latitude": 53.349375, "Longitude": -2.279521, "Municipality": "Manchester", "iso_country": "GB", "Iso_Region": "GB-ENG"}, {"Index": 67404, "ICAO": "EGGP", "Name": "Liverpool John Lennon Airport", "Latitude": 53.33359909057617, "Longitude": -2.849720001220703, "Municipality": "Liverpool", "iso_country": "GB", "Iso_Region": "GB-ENG"}, {"Index": 67414, "ICAO": "LDDU", "Name": "Dubrovnik Airport", "Latitude": 42.5614013671875, "Longitude": 18.268199920654297, "Municipality": "Dubrovnik", "iso_country": "HR", "Iso_Region": "HR-19"}, {"Index": 67635, "ICAO": "EGJJ", "Name": "Jersey Airport", "Latitude": 49.20790100097656, "Longitude": -2.195509910583496, "Municipality": "Saint Helier", "iso_country": "JE", "Iso_Region": "JE-U-A"}, {"Index": 67700, "ICAO": "YBBN", "Name": "Brisbane International Airport", "Latitude": -27.384199142456055, "Longitude": 153.11700439453125, "Municipality": "Brisbane", "iso_country": "AU", "Iso_Region": "AU-QLD"}, {"Index": 67715, "ICAO": "EGKK", "Name": "London Gatwick Airport", "Latitude": 51.148102, "Longitude": -0.190278, "Municipality": "London", "iso_country": "GB", "Iso_Region": "GB-ENG"}, {"Index": 67795, "ICAO": "EGLL", "Name": "London Heathrow Airport", "Latitude": 51.4706, "Longitude": -0.461941, "Municipality": "London", "iso_country": "GB", "Iso_Region": "GB-ENG"}, {"Index": 67965, "ICAO": "EGNX", "Name": "East Midlands Airport", "Latitude": 52.8311004639, "Longitude": -1.32806003094, "Municipality": "Nottingham", "iso_country": "GB", "Iso_Region": "GB-ENG"}, {"Index": 68105, "ICAO": "EGPF", "Name": "Glasgow International Airport", "Latitude": 55.871899, "Longitude": -4.43306, "Municipality": "Glasgow", "iso_country": "GB", "Iso_Region": "GB-SCT"}, {"Index": 68107, "ICAO": "EGPH", "Name": "Edinburgh Airport", "Latitude": 55.95000076293945, "Longitude": -3.372499942779541, "Municipality": "Edinburgh", "iso_country": "GB", "Iso_Region": "GB-SCT"}, {"Index": 68241, "ICAO": "MYNN", "Name": "Lynden Pindling International Airport", "Latitude": 25.039, "Longitude": -77.466202, "Municipality": "Nassau", "iso_country": "BS", "Iso_Region": "BS-NP"}, {"Index": 68355, "ICAO": "EGSS", "Name": "London Stansted Airport", "Latitude": 51.8849983215, "Longitude": 0.234999999404, "Municipality": "London", "iso_country": "GB", "Iso_Region": "GB-ENG"}, {"Index": 69132, "ICAO": "LDZA", "Name": "Zagreb Airport", "Latitude": 45.7429008484, "Longitude": 16.0687999725, "Municipality": "Zagreb", "iso_country": "HR", "Iso_Region": "HR-21"}, {"Index": 69135, "ICAO": "LDZD", "Name": "Zadar Airport", "Latitude": 44.108299, "Longitude": 15.3467, "Municipality": "Zemunik (Zadar)", "iso_country": "HR", "Iso_Region": "HR-13"}, {"Index": 71106, "ICAO": "OEJN", "Name": "King Abdulaziz International Airport", "Latitude": 21.6796, "Longitude": 39.156502, "Municipality": "Jeddah", "iso_country": "SA", "Iso_Region": "SA-02"}, {"Index": 71287, "ICAO": "MMMX", "Name": "Licenciado Benito Juarez International Airport", "Latitude": 19.4363, "Longitude": -99.072098, "Municipality": "Mexico City", "iso_country": "MX", "Iso_Region": "MX-DIF"}, {"Index": 71444, "ICAO": "PANC", "Name": "Ted Stevens Anchorage International Airport", "Latitude": 61.1744, "Longitude": -149.996002, "Municipality": "Anchorage", "iso_country": "US", "Iso_Region": "US-AK"}, {"Index": 71909, "ICAO": "MMUN", "Name": "Canc\u00fan International Airport", "Latitude": 21.036500930800003, "Longitude": -86.8770980835, "Municipality": "Canc\u00fan", "iso_country": "MX", "Iso_Region": "MX-ROO"}, {"Index": 71989, "ICAO": "TJSJ", "Name": "Luis Munoz Marin International Airport", "Latitude": 18.4393997192, "Longitude": -66.0018005371, "Municipality": "San Juan", "iso_country": "PR", "Iso_Region": "PR-U-A"}, {"Index": 73168, "ICAO": "EHAM", "Name": "Amsterdam Airport Schiphol", "Latitude": 52.308601, "Longitude": 4.76389, "Municipality": "Amsterdam", "iso_country": "NL", "Iso_Region": "NL-NH"}, {"Index": 73368, "ICAO": "KIAD", "Name": "Washington Dulles International Airport", "Latitude": 38.9445, "Longitude": -77.455803, "Municipality": "Washington", "iso_country": "US", "Iso_Region": "US-DC"}, {"Index": 73372, "ICAO": "KIAH", "Name": "George Bush Intercontinental Houston Airport", "Latitude": 29.984399795532227, "Longitude": -95.34140014648438, "Municipality": "Houston", "iso_country": "US", "Iso_Region": "US-TX"}, {"Index": 73409, "ICAO": "LEAL", "Name": "Alicante International Airport", "Latitude": 38.28219985961914, "Longitude": -0.5581560134887695, "Municipality": "Alicante", "iso_country": "ES", "Iso_Region": "ES-V"}, {"Index": 73488, "ICAO": "LEBL", "Name": "Barcelona International Airport", "Latitude": 41.2971, "Longitude": 2.07846, "Municipality": "Barcelona", "iso_country": "ES", "Iso_Region": "ES-CT"}, {"Index": 73602, "ICAO": "KIDA", "Name": "Idaho Falls Regional Airport", "Latitude": 43.514599, "Longitude": -112.070999, "Municipality": "Idaho Falls", "iso_country": "US", "Iso_Region": "US-ID"}, {"Index": 73876, "ICAO": "LEGE", "Name": "Girona Airport", "Latitude": 41.901000977, "Longitude": 2.7605500221, "Municipality": "Girona", "iso_country": "ES", "Iso_Region": "ES-GE"}, {"Index": 74031, "ICAO": "LEIB", "Name": "Ibiza Airport", "Latitude": 38.872898, "Longitude": 1.37312, "Municipality": "Ibiza", "iso_country": "ES", "Iso_Region": "ES-PM"}, {"Index": 74125, "ICAO": "SBGL", "Name": "Rio Gale\u00e3o \u2013 Tom Jobim International Airport", "Latitude": -22.8099994659, "Longitude": -43.2505569458, "Municipality": "Rio De Janeiro", "iso_country": "BR", "Iso_Region": "BR-RJ"}, {"Index": 74131, "ICAO": "SBGR", "Name": "Guarulhos - Governador Andr\u00e9 Franco Montoro International Airport", "Latitude": -23.435556411743164, "Longitude": -46.47305679321289, "Municipality": "S\u00e3o Paulo", "iso_country": "BR", "Iso_Region": "BR-SP"}, {"Index": 74349, "ICAO": "LEMD", "Name": "Adolfo Su\u00e1rez Madrid\u2013Barajas Airport", "Latitude": 40.471926, "Longitude": -3.56264, "Municipality": "Madrid", "iso_country": "ES", "Iso_Region": "ES-M"}, {"Index": 74352, "ICAO": "LEMG", "Name": "M\u00e1laga Airport", "Latitude": 36.67490005493164, "Longitude": -4.499110221862793, "Municipality": "M\u00e1laga", "iso_country": "ES", "Iso_Region": "ES-AN"}, {"Index": 74395, "ICAO": "KIND", "Name": "Indianapolis International Airport", "Latitude": 39.7173, "Longitude": -86.294403, "Municipality": "Indianapolis", "iso_country": "US", "Iso_Region": "US-IN"}, {"Index": 74583, "ICAO": "LEPA", "Name": "Palma De Mallorca Airport", "Latitude": 39.551700592, "Longitude": 2.73881006241, "Municipality": "Palma De Mallorca", "iso_country": "ES", "Iso_Region": "ES-PM"}, {"Index": 76924, "ICAO": "SOCA", "Name": "Cayenne \u2013 F\u00e9lix Ebou\u00e9 Airport", "Latitude": 4.81981, "Longitude": -52.360401, "Municipality": "Matoury", "iso_country": "GF", "Iso_Region": "GF-CY"}, {"Index": 77319, "ICAO": "GMMX", "Name": "Menara Airport", "Latitude": 31.606899261499997, "Longitude": -8.03629970551, "Municipality": "Marrakech", "iso_country": "MA", "Iso_Region": "MA-MAR"}, {"Index": 77645, "ICAO": "LROP", "Name": "Henri Coand\u0103 International Airport", "Latitude": 44.5711111, "Longitude": 26.085, "Municipality": "Bucharest", "iso_country": "RO", "Iso_Region": "RO-B"}, {"Index": 77994, "ICAO": "TKPK", "Name": "Robert L. Bradshaw International Airport", "Latitude": 17.311199188232422, "Longitude": -62.71870040893555, "Municipality": "Basseterre", "iso_country": "KN", "Iso_Region": "KN-U-A"}]